name,name_raw,address_raw,address_clean,address_for_geocoding,type,city,hours,latitude,longitude,geocoded_address,geocode_status
მეამას სივრცე • თბილისი,მეამას სივრცე • თბილისი,აღმაშენებლის გამზირი მე-16 კმ. (თბილისი მოლი),აღმაშენებლის გამზირი მე-16 კმ. (თბილისი მოლი),"აღმაშენებლის გამზირი მე-16 კმ. (თბილისი მოლი), Tbilisi, Georgia",Space,Tbilisi,სამუშაო საათები: 10:00 - 22:00,41.6934591,44.8014495,"თბილისი, საქართველო",city_only
მეამას სივრცე • თბილისი,მეამას სივრცე • თბილისი,პეტრე ქავთარაძის N1 (სითი მოლი),პეტრე ქავთარაძის N1 (სითი მოლი),"პეტრე ქავთარაძის N1 (სითი მოლი), Tbilisi, Georgia",Space,Tbilisi,სამუშაო საათები: 10:00-22:00,41.6934591,44.8014495,"თბილისი, საქართველო",city_only
მეამას სივრცე • თბილისი,მეამას სივრცე • თბილისი,ალ.თვალჭრელიძის  N2 (ისთ ფოინთი),ალ.თვალჭრელიძის  N2 (ისთ ფოინთი),"ალ.თვალჭრელიძის  N2 (ისთ ფოინთი), Tbilisi, Georgia",Space,Tbilisi,სამუშაო საათები: 10:00-22:00,41.6934591,44.8014495,"თბილისი, საქართველო",city_only
მეამა ქოლექთი • თბილისი,მეამა ქოლექთი • თბილისი,აკაკი ბელიაშვილის N1,აკაკი ბელიაშვილის N1,"აკაკი ბელიაშვილის N1, Tbilisi, Georgia",Collect,Tbilisi,ღიაა 22:00 სთ_მდე,41.7862863,44.7797599,"აკაკი ბელიაშვილის ქუჩა, დიდუბის რაიონი, დიღმის მასივი, თბილისი, 0159, საქართველო",success
მეამა ქოლექთი • თბილისი,მეამა ქოლექთი • თბილისი,ირაკლი აბაშიძის 21/23,ირაკლი აბაშიძის 21/23,"ირაკლი აბაშიძის 21/23, Tbilisi, Georgia",Collect,Tbilisi,ღიაა 22:00 სთ_მდე,41.7079357,44.7629754,"ირაკლი აბაშიძის ქუჩა, ვაკე, ვაკის რაიონი, თბილისი, 7002, საქართველო",success
მეამა ქოლექთი  •  თბილისი,მეამა ქოლექთი  •  თბილისი,ალ.თვარჭრელიძის N2 (ისთ ფოინთი),ალ.თვარჭრელიძის N2 (ისთ ფოინთი),"ალ.თვარჭრელიძის N2 (ისთ ფოინთი), Tbilisi, Georgia",Collect,Tbilisi,ღიაა 22:00 სთ_მდე,41.6934591,44.8014495,"თბილისი, საქართველო",city_only
მეამა ქოლექთი •  თბილისი,მეამა ქოლექთი •  თბილისი,კუს ტბა,კუს ტბა,"კუს ტბა, Tbilisi, Georgia",Collect,Tbilisi,ღიაა 12:00-19:00 სთ_მდე,41.7003914,44.7544551,"კუს ტბა, ვაკე, ვაკის რაიონი, თბილისი, საქართველო",success
მეამა ქოლექთი • რუსთავი,მეამა ქოლექთი • რუსთავი,მერაბ კოსტავას N14,მერაბ კოსტავას N14,"მერაბ კოსტავას N14, Rustavi, Georgia",Collect,Rustavi,ღიაა 21:00 სთ_მდე,41.5422714,45.0135078,"მერაბ კოსტავას გამზირი, ძველი რუსთავი, რუსთავი, ქვემო ქართლი, 3700, საქართველო",success
მეამა ქოლექთი • თბილისი,მეამა ქოლექთი • თბილისი,ანა პოლიტკოვსკაიას N1  (შენი სახლი ჯიქიაზე),ანა პოლიტკოვსკაიას N1  (შენი სახლი ჯიქიაზე),"ანა პოლიტკოვსკაიას N1  (შენი სახლი ჯიქიაზე), Tbilisi, Georgia",Collect,Tbilisi,ღიაა 22:00 სთ_მდე,41.6934591,44.8014495,"თბილისი, საქართველო",city_only
მეამა ქოლექთი • თბილისი,მეამა ქოლექთი • თბილისი,ზვიად გამსახურდიას სანაპირო N108,ზვიად გამსახურდიას სანაპირო N108,"ზვიად გამსახურდიას სანაპირო N108, Tbilisi, Georgia",Collect,Tbilisi,ღიაა 24/7,41.7105245,44.7890832,"ზვიად გამსახურდიას სანაპირო, ვერა, მთაწმინდის რაიონი, თბილისი, 1079, საქართველო",success
მეამა ქოლექთი • თავისუფალი უნივერსიტეტი,მეამა ქოლექთი • თავისუფალი უნივერსიტეტი,დავით აღმაშენებლის N240,დავით აღმაშენებლის N240,"დავით აღმაშენებლის N240, Tbilisi, Georgia",Collect,Tbilisi,ღიაა 20:00 სთ_მდე,41.8058782,44.7682722,"თავისუფალი და აგრარული უნივერსიტეტები, 13-th km, დავით აღმაშენებლის ხეივანი, დიღომი, ვაშლიჯვარი, საბურთალოს რაიონი, თბილისი, 0159, საქართველო",success
მეამა ქოლექთი • თბილისი,მეამა ქოლექთი • თბილისი,ზაქარია ფალიაშვილის N36,ზაქარია ფალიაშვილის N36,"ზაქარია ფალიაშვილის N36, Tbilisi, Georgia",Collect,Tbilisi,ღიაა 22:00 სთ_მდე,41.709319,44.7602375,"ზაქარია ფალიაშვილის ქუჩა, ვაკე, ვაკის რაიონი, თბილისი, 0162, საქართველო",success
მეამა ქოლექთი  • თბილისი,მეამა ქოლექთი  • თბილისი,ირაკლი აბაშიძის N 65-67,ირაკლი აბაშიძის N 65-67,"ირაკლი აბაშიძის N 65-67, Tbilisi, Georgia",Collect,Tbilisi,ღიაა 22:00 სთ_მდე,41.6934591,44.8014495,"თბილისი, საქართველო",city_only
მეამა ქოლექთი • თბილისი,მეამა ქოლექთი • თბილისი,გივი კარტოზიას N8 (მ2-ის ეზოში),გივი კარტოზიას N8 (მ2-ის ეზოში),"გივი კარტოზიას N8 (მ2-ის ეზოში), Tbilisi, Georgia",Collect,Tbilisi,ღიაა 22:00 სთ_მდე,41.6934591,44.8014495,"თბილისი, საქართველო",city_only
მეამა ქოლექთ • თბილისი,მეამა ქოლექთ • თბილისი,ბახტრიონის  N1 (ბუკიას ბაღი),ბახტრიონის  N1 (ბუკიას ბაღი),"ბახტრიონის  N1 (ბუკიას ბაღი), Tbilisi, Georgia",Collect,Tbilisi,ღიაა 22:00 სთ_მდე,41.6934591,44.8014495,"თბილისი, საქართველო",city_only
მეამა ქოლექთი • ბათუმი,მეამა ქოლექთი • ბათუმი,მემედ აბაშიძის N62,მემედ აბაშიძის N62,"მემედ აბაშიძის N62, Batumi, Georgia",Collect,Batumi,ღიაა 22:00 სთ_მდე,41.6509502,41.6360085,"ბათუმი, აჭარის ავტონომიური რესპუბლიკა, საქართველო",city_only
მეამა ქოლექთი • კლდიაშვილი,მეამა ქოლექთი • კლდიაშვილი,"თბილისი, კლდიაშვილის ქუჩა#3",კლდიაშვილის ქუჩა#3,"კლდიაშვილის ქუჩა#3, Tbilisi, Georgia",Collect,Tbilisi,ღიაა 22:30 სთ_მდე,41.7053194,44.7698466,"3, კოკა კლდიაშვილის ქუჩა, ვაკე, ვაკის რაიონი, თბილისი, 0179, საქართველო",success
მეამა ქოლექთი • თბილისი,მეამა ქოლექთი • თბილისი,დავით აღმაშენებლის N12,დავით აღმაშენებლის N12,"დავით აღმაშენებლის N12, Tbilisi, Georgia",Collect,Tbilisi,ღიაა 24/7,41.7836546,44.7689875,"დავით აღმაშენებლის ხეივანი, დიღომი, ვაშლიჯვარი, საბურთალოს რაიონი, თბილისი, 0159, საქართველო",success
მეამა ქოლექთი • ჩიტაია,მეამა ქოლექთი • ჩიტაია,"თბილისი, ჩიტაიას 39 ა",ჩიტაიას 39 ა,"ჩიტაიას 39 ა, Tbilisi, Georgia",Collect,Tbilisi,ღიაა 22:00 სთ_მდე,41.7162209,44.8025925,"39ა, გიორგი ჩიტაიას ქუჩა, ოქროს უბანი, ქვედა ჩუღურეთი, ჩუღურეთის რაიონი, თბილისი, 0102, საქართველო",success
მეამა ქოლექთი • მარჯანიშვილი,მეამა ქოლექთი • მარჯანიშვილი,"თბილისი, მარჯანიშვილის 33",მარჯანიშვილის 33,"მარჯანიშვილის 33, Tbilisi, Georgia",Collect,Tbilisi,ღიაა 22:30 სთ_მდე,41.7104003,44.7998134,"33/90გ, კოტე მარჯანიშვილის ქუჩა, პლეხანოვი, ქვედა ჩუღურეთი, ჩუღურეთის რაიონი, თბილისი, 0102, საქართველო",success
მეამა ქოლექთი • მელიქიშვილი,მეამა ქოლექთი • მელიქიშვილი,"თბილისი, მელიქიშვილის 11",მელიქიშვილის 11,"მელიქიშვილის 11, Tbilisi, Georgia",Collect,Tbilisi,ღიაა 22:30 სთ_მდე,41.6976382,44.8668478,"11, გიორგი მელიქიშვილის ქუჩა, მესამე მასივი, სამგორის რაიონი, თბილისი, 0182, საქართველო",success
მეამა ქოლექთი • ნატახტარი,მეამა ქოლექთი • ნატახტარი,"ნატახტარი, kfc-სთან","ნატახტარი, kfc-სთან","ნატახტარი, kfc-სთან, Natakhtari, Georgia",Collect,Natakhtari,ღიაა 21:00 სთ_მდე,41.9211953,44.7299276,"ნატახტარი, მცხეთის მუნიციპალიტეტი, მცხეთა-მთიანეთი, საქართველო",city_only
მეამა ქოლექთი • თბილისი,მეამა ქოლექთი • თბილისი,ლისის ტბა,ლისის ტბა,"ლისის ტბა, Tbilisi, Georgia",Collect,Tbilisi,ღიაა 22:00 სთ_მდე,41.7439039,44.7346048,"ლისის ტბა, საბურთალოს რაიონი, თბილისი, საქართველო",success
მეამა ქოლექთი • რუსთავი,მეამა ქოლექთი • რუსთავი,"რუსთავი, კოსტავას 20","რუსთავი, კოსტავას 20","რუსთავი, კოსტავას 20, Rustavi, Georgia",Collect,Rustavi,ღიაა 00:00 სთ_მდე,41.5466778,45.014959,"რუსთავი, ქვემო ქართლი, 3700, საქართველო",city_only
მეამა ქოლექთი • ყაზბეგი,მეამა ქოლექთი • ყაზბეგი,"თბილისი, ალ.ყაზბეგის 41",ალ.ყაზბეგის 41,"ალ.ყაზბეგის 41, Tbilisi, Georgia",Collect,Tbilisi,ღიაა 21:00 სთ_მდე,41.6934591,44.8014495,"თბილისი, საქართველო",city_only
მეამა ქოლექთი • თელავი,მეამა ქოლექთი • თელავი,"თელავი, ნადიკვარის ქუჩა 16 ა","თელავი, ნადიკვარის ქუჩა 16 ა","თელავი, ნადიკვარის ქუჩა 16 ა, Telavi, Georgia",Collect,Telavi,ღიაა 21:00 სთ_მდე,41.9197221,45.4703169,"თელავი, თელავის მუნიციპალიტეტი, კახეთი, საქართველო",city_only
მეამა ქოლექთი • გორი,მეამა ქოლექთი • გორი,"გორი, ამილახვარია ქ. #1","გორი, ამილახვარია ქ. #1","გორი, ამილახვარია ქ. #1, Gori, Georgia",Collect,Gori,ღიაა 21:00 სთ_მდე,41.9818469,44.1117811,"გორი, გორის მუნიციპალიტეტი, შიდა ქართლი, 1400, საქართველო",city_only
მეამა ქოლექთი • თბილისი,მეამა ქოლექთი • თბილისი,დედაენის ბაღი,დედაენის ბაღი,"დედაენის ბაღი, Tbilisi, Georgia",Collect,Tbilisi,ღიაა 22:00 სთ_მდე,41.7006436,44.8045466,"დედაენის ბაღი, მთაწმინდა, სოლოლაკი, მთაწმინდის რაიონი, თბილისი, საქართველო",success
მეამა ქოლექთი • ნაფარეული,მეამა ქოლექთი • ნაფარეული,"თბილისი, ნაფარეულის ქუჩა 4",ნაფარეულის ქუჩა 4,"ნაფარეულის ქუჩა 4, Tbilisi, Georgia",Collect,Tbilisi,ღიაა 21:30 სთ_მდე,41.7088744,44.7771165,"4, ნაფარეულის ქუჩა, ვაკე, ვაკის რაიონი, თბილისი, 0171, საქართველო",success
მეამა ქოლექთი• ქუთაისი,მეამა ქოლექთი• ქუთაისი,"ქუთაისი, თამარ მეფის 37","ქუთაისი, თამარ მეფის 37","ქუთაისი, თამარ მეფის 37, Kutaisi, Georgia",Collect,Kutaisi,ღიაა 23:00 სთ_მდე,42.2596791,42.6633738,"ქუთაისი, იმერეთი, 4600, საქართველო",city_only
მეამა ქოლექთი • ქუთაისი მოლი,მეამა ქოლექთი • ქუთაისი მოლი,"ქუთაისი, ჟ.შარტავას 2","ქუთაისი, ჟ.შარტავას 2","ქუთაისი, ჟ.შარტავას 2, Kutaisi, Georgia",Collect,Kutaisi,ღიაა 21:00 სთ_მდე,42.2596791,42.6633738,"ქუთაისი, იმერეთი, 4600, საქართველო",city_only
მეამა ქოლექთი • KIU,მეამა ქოლექთი • KIU,მეამა ქოლექთი • ქუთაისი მოლი,მეამა ქოლექთი • ქუთაისი მოლი,"მეამა ქოლექთი • ქუთაისი მოლი, Kutaisi, Georgia",Collect,Kutaisi,ღიაა 18:00 სთ_მდე,42.2596791,42.6633738,"ქუთაისი, იმერეთი, 4600, საქართველო",city_only
მეამა ქოლექთი • ფოთი,მეამა ქოლექთი • ფოთი,დავით აღმაშენებლის №9-ში,დავით აღმაშენებლის №9-ში,"დავით აღმაშენებლის №9-ში, Poti, Georgia",Collect,Poti,ღიაა 23:00 სთ-მდე,42.141614,41.6748028,"ფოთი, სამეგრელო-ზემო სვანეთი, 4400, საქართველო",city_only
მეამა ქოლექთი • ლილო,მეამა ქოლექთი • ლილო,"თბილისი, კახეთის გზატკეცილი N 271ბ",კახეთის გზატკეცილი N 271ბ,"კახეთის გზატკეცილი N 271ბ, Tbilisi, Georgia",Collect,Tbilisi,ღიაა 21:00 სთ-მდე,41.6934591,44.8014495,"თბილისი, საქართველო",city_only
მეამა ქოლექთი • ვაზისუბანი,მეამა ქოლექთი • ვაზისუბანი,"თბილისი, ვაზისუბანი I მიკრო, II კორპუსის მიმდებარედ","ვაზისუბანი I მიკრო, II კორპუსის მიმდებარედ","ვაზისუბანი I მიკრო, II კორპუსის მიმდებარედ, Tbilisi, Georgia",Collect,Tbilisi,ღიაა 00:00 სთ-მდე,41.6934591,44.8014495,"თბილისი, საქართველო",city_only
მეამა ქოლექთი • ჭოველიძე,მეამა ქოლექთი • ჭოველიძე,"თბილისი, თამარ ჭოველიძის 11",თამარ ჭოველიძის 11,"თამარ ჭოველიძის 11, Tbilisi, Georgia",Collect,Tbilisi,ღიაა 21:00 სთ-მდე,41.7054483,44.7866534,"11, თამარ ჭოველიძის ქუჩა, ვერა, მთაწმინდის რაიონი, თბილისი, 1079, საქართველო",success
მეამა ქოლექთი • მცხეთა,მეამა ქოლექთი • მცხეთა,"მცხეთა, მირიან მეფის ქუჩა","მცხეთა, მირიან მეფის ქუჩა","მცხეთა, მირიან მეფის ქუჩა, Mtskheta, Georgia",Collect,Mtskheta,ღიაა 19:00 სთ-მდე,41.846295,44.7195591,"მცხეთა, მცხეთის მუნიციპალიტეტი, მცხეთა-მთიანეთი, საქართველო",city_only
PSP Insurance,"PSP Insurance ""dispenser""",ქ.თბილისი აღმაშენებელის 148/3,აღმაშენებელის 148/3,"აღმაშენებელის 148/3, Tbilisi, Georgia",Dropper,Tbilisi,,41.6668686,44.7516706,"დავით აღმაშენებელის ქუჩა, წავკისი, წავკისი, შინდისი, ტაბახმელა, მთაწმინდის რაიონი, თბილისი, 1062, საქართველო",success
onairentertainment,onairentertainment,თბილისი გურამიშვილის გამზირი 158,გურამიშვილის გამზირი 158,"გურამიშვილის გამზირი 158, Tbilisi, Georgia",Dropper,Tbilisi,,41.7818083,44.7962883,"158, დავით გურამიშვილის გამზირი, ღრმაღელე, ფეიქრების დასახლება, ნაძალადევის რაიონი, თბილისი, 0141, საქართველო",success
TBC-Melikishvili,TBC-Melikishvili,"123 Main St, City, Country 3","123 Main St, City, Country 3","123 Main St, City, Country 3, Tbilisi, Georgia",Dropper,Tbilisi,,,,,skipped
TBC-CHavchavadze,TBC-CHavchavadze,ქ.თბილისი თორნიკე ერისთავის 8,თორნიკე ერისთავის 8,"თორნიკე ერისთავის 8, Tbilisi, Georgia",Dropper,Tbilisi,,41.7481074,44.7802791,"8, თორნიკე ერისთავის ქუჩა, ნაძალადევი, ნაძალადევის რაიონი, თბილისი, 0180, საქართველო",success
Credo Bank 2,Credo Bank 2,ქ.თბილისი თაბუკაშვილის 27,თაბუკაშვილის 27,"თაბუკაშვილის 27, Tbilisi, Georgia",Dropper,Tbilisi,,41.7018489,44.7969008,"27, რევაზ თაბუკაშვილის ქუჩა, გარეთუბანი, მთაწმინდა, სოლოლაკი, მთაწმინდის რაიონი, თბილისი, 1234, საქართველო",success
BOG (I. Gagarini Str.),"BOG (I. Gagarini Str.) ""dispenser""",ქ.თბილისი გაგარინის 29ა,გაგარინის 29ა,"გაგარინის 29ა, Tbilisi, Georgia",Dropper,Tbilisi,,41.7357541,44.7703922,"საქართველოს ბანკის სათავო ოფისი, 29ა, იური გაგარინის ქუჩა, საბურთალო, ვეძისი, ყაზბეგი, გოთუა, საბურთალოს ქუჩა, საბურთალოს რაიონი, თბილისი, 0160, საქართველო",success
Credo Bank (Tabukashvili St),Credo Bank (Tabukashvili St),ქ.თბილისი თაბუკაშვილის 27,თაბუკაშვილის 27,"თაბუკაშვილის 27, Tbilisi, Georgia",Dropper,Tbilisi,,41.7018489,44.7969008,"27, რევაზ თაბუკაშვილის ქუჩა, გარეთუბანი, მთაწმინდა, სოლოლაკი, მთაწმინდის რაიონი, თბილისი, 1234, საქართველო",success
alfa romeo,alfa romeo,"123 Main St, City, Country 3","123 Main St, City, Country 3","123 Main St, City, Country 3, Tbilisi, Georgia",Dropper,Tbilisi,,,,,skipped
GIPA,"GIPA ""dispenser""",ქ.თბილისი ბროსეს 2,ბროსეს 2,"ბროსეს 2, Tbilisi, Georgia",Dropper,Tbilisi,,41.7025434,44.797673,"2, მარი ბროსეს ქუჩა, გარეთუბანი, მთაწმინდა, სოლოლაკი, მთაწმინდის რაიონი, თბილისი, 1234, საქართველო",success
TBC Bank (Politkovskaya str.),"TBC Bank (Politkovskaya str.) ""dispenser""",ქ.თბილისი პოლიტკოვსკაიას 14,პოლიტკოვსკაიას 14,"პოლიტკოვსკაიას 14, Tbilisi, Georgia",Dropper,Tbilisi,,41.7200333,44.7111134,"14, ანა პოლიტკოვსკაიას ქუჩა, საბურთალო, ვაჟა-ფშაველას კვარტლები, ვაკის რაიონი, თბილისი, 0168, საქართველო",success
REDISONI,REDISONI,"თბილისი, რესპუბლიკის მოედანი 1",რესპუბლიკის მოედანი 1,"რესპუბლიკის მოედანი 1, Tbilisi, Georgia",Dropper,Tbilisi,,41.7039218,44.7935691,"Radisson Blu Iveria Hotel, 1, პირველი რესპუბლიკის მოედანი, მთაწმინდა, სოლოლაკი, მთაწმინდის რაიონი, თბილისი, 0108, საქართველო",success
Brand Shop City Mall,Brand Shop City Mall,ქ.თბილისი ქავთარაძის 1,ქავთარაძის 1,"ქავთარაძის 1, Tbilisi, Georgia",Dropper,Tbilisi,,41.7213308,44.7225831,"1, პეტრე ქავთარაძის III შესახვევი, საბურთალო, ვაჟა-ფშაველას კვარტლები, ვაკის რაიონი, თბილისი, 1086, საქართველო",success
Opera,Opera,ქ.თბილისი რუსთაველის 25,რუსთაველის 25,"რუსთაველის 25, Rustavi, Georgia",Dropper,Rustavi,,41.5514747,45.0163705,"25, შოთა რუსთაველის ქუჩა, ნიკოლოზ ბარათაშვილის დასახლება, რუსთავი, ქვემო ქართლი, 3700, საქართველო",success
Reiman-1,"Reiman-1 ""dispenser""",ქ.თბილისი სანდრო ეულის 7,სანდრო ეულის 7,"სანდრო ეულის 7, Tbilisi, Georgia",Dropper,Tbilisi,,41.7236913,44.7173223,"ზურაბ ანჯაფარიძის ქუჩა, საბურთალო, ვაჟა-ფშაველას კვარტლები, ვაკის რაიონი, თბილისი, 0168, საქართველო",success
Supreme Court of Georgia,Supreme Court of Georgia,ქ.თბილისი ზუბალაშვილების 32,ზუბალაშვილების 32,"ზუბალაშვილების 32, Tbilisi, Georgia",Dropper,Tbilisi,,41.6993474,44.7944031,"ძმები ზუბალაშვილების ქუჩა, მთაწმინდა, მთაწმინდა, სოლოლაკი, მთაწმინდის რაიონი, თბილისი, 0108, საქართველო",success
Municipal Fund of Georgia,"Municipal Fund of Georgia ""dispenser""",ქ.თბილისი აღმაშენებლის 150,აღმაშენებლის 150,"აღმაშენებლის 150, Tbilisi, Georgia",Dropper,Tbilisi,,41.7172755,44.791353,"150, დავით აღმაშენებლის გამზირი, პლეხანოვი, ქვედა ჩუღურეთი, ჩუღურეთის რაიონი, თბილისი, 0112, საქართველო",success
OPPA ( Kazbegi Ave),"OPPA ( Kazbegi Ave) ""dispenser""",ქ.თბილისი ყაზბეგის 15,ყაზბეგის 15,"ყაზბეგის 15, Tbilisi, Georgia",Dropper,Tbilisi,,41.7263364,44.7632127,"15, ალექსანდრე ყაზბეგის გამზირი, საბურთალო, ვეძისი, ყაზბეგი, გოთუა, საბურთალოს ქუჩა, საბურთალოს რაიონი, თბილისი, 0194, საქართველო",success
GEORGIAN PARLIAMENT,GEORGIAN PARLIAMENT dispenser,ქ.თბილისი რუსთაველის 8,რუსთაველის 8,"რუსთაველის 8, Rustavi, Georgia",Dropper,Rustavi,,41.545073,45.0116867,"8, შოთა რუსთაველის ქუჩა, ნიკოლოზ ბარათაშვილის დასახლება, რუსთავი, ქვემო ქართლი, 3700, საქართველო",success
Inova,"Inova ""dispenser""",ქ.თბილისი სანდრო ეულის 7,სანდრო ეულის 7,"სანდრო ეულის 7, Tbilisi, Georgia",Dropper,Tbilisi,,41.7236913,44.7173223,"ზურაბ ანჯაფარიძის ქუჩა, საბურთალო, ვაჟა-ფშაველას კვარტლები, ვაკის რაიონი, თბილისი, 0168, საქართველო",success
tbc abashidze,tbc abashidze,აბაშიძის 21 ა,აბაშიძის 21 ა,"აბაშიძის 21 ა, Tbilisi, Georgia",Dropper,Tbilisi,,41.7077381,44.7674979,"21ა, ირაკლი აბაშიძის ქუჩა, ვაკე, ვაკის რაიონი, თბილისი, 0179, საქართველო",success
Social Agency,"Social Agency ""dispenser""",ქ.თბილისი ჯავახიშვილის 51,ჯავახიშვილის 51,"ჯავახიშვილის 51, Tbilisi, Georgia",Dropper,Tbilisi,,41.7092609,44.8021443,"51, ივანე ჯავახიშვილის ქუჩა, პლეხანოვი, ქვედა ჩუღურეთი, ჩუღურეთის რაიონი, თბილისი, 0102, საქართველო",success
Aversi Pharma (kazbegi),"Aversi Pharma (kazbegi) ""dispenser""",ქ.თბილისი ყაზბეგის 16,ყაზბეგის 16,"ყაზბეგის 16, Tbilisi, Georgia",Dropper,Tbilisi,,41.7249138,44.762618,"16, ალექსანდრე ყაზბეგის გამზირი, საბურთალო, ვეძისი, ყაზბეგი, გოთუა, საბურთალოს ქუჩა, საბურთალოს რაიონი, თბილისი, 0194, საქართველო",success
Safety Academia,"Safety Academia ""dispenser""",ქ.თბილისი პოლიტკოვსკაიას 14,პოლიტკოვსკაიას 14,"პოლიტკოვსკაიას 14, Tbilisi, Georgia",Dropper,Tbilisi,,41.7200333,44.7111134,"14, ანა პოლიტკოვსკაიას ქუჩა, საბურთალო, ვაჟა-ფშაველას კვარტლები, ვაკის რაიონი, თბილისი, 0168, საქართველო",success
SILK ROAD BANK,"SILK ROAD BANK ""dispenser""",ქ.თბილისი ზაარბრიუკენის მოედანი 2,ზაარბრიუკენის მოედანი 2,"ზაარბრიუკენის მოედანი 2, Tbilisi, Georgia",Dropper,Tbilisi,,41.7024181,44.804827,"ტიფლისი, 7/2, ზაარბრიუკენის მოედანი, პლეხანოვი, ქვედა ჩუღურეთი, ჩუღურეთის რაიონი, თბილისი, 0102, საქართველო",success
TBC insurance,TBC insurance,"ქ. თბილისი, ალ. ყაზბეგის 28 ა",ალ. ყაზბეგის 28 ა,"ალ. ყაზბეგის 28 ა, Tbilisi, Georgia",Dropper,Tbilisi,,41.6934591,44.8014495,"თბილისი, საქართველო",city_only
TBC Bank 3 (Ateni St.),"TBC Bank 3 (Ateni St.) ""dispenser""",ქ.თბილისი ატენის 2,ატენის 2,"ატენის 2, Tbilisi, Georgia",Dropper,Tbilisi,,41.7100012,44.7722788,"2/5, ატენის ქუჩა, ვაკე, ვაკის რაიონი, თბილისი, 0179, საქართველო",success
tegeta toiota,tegeta toiota,ქ.თბილისი უნივერსიტეტის ქუჩა 6,უნივერსიტეტის ქუჩა 6,"უნივერსიტეტის ქუჩა 6, Tbilisi, Georgia",Dropper,Tbilisi,,41.7178607,44.7365471,"ტოიოტა ცენტრი თეგეტა, 6, უნივერსიტეტის ქუჩა, ვაკე, ვაკის რაიონი, თბილისი, 0186, საქართველო",success
bog-11,bog-11,გაზაფხულის ქუჩა,გაზაფხულის ქუჩა,"გაზაფხულის ქუჩა, Tbilisi, Georgia",Dropper,Tbilisi,,41.7780119,44.8608664,"გაზაფხულის ქუჩა, მუხიანის აგარაკები, მუხიანი, გლდანის რაიონი, თბილისი, 0143, საქართველო",success
TBILISI-ENERGY,"TBILISI-ENERGY ""dispenser""",ქ.თბილისი მიცკევიჩის 18ა,მიცკევიჩის 18ა,"მიცკევიჩის 18ა, Tbilisi, Georgia",Dropper,Tbilisi,,41.7242165,44.7670644,"Badagi, 18ა, ადამ მიცკევიჩის ქუჩა, საბურთალო, ვეძისი, ყაზბეგი, გოთუა, საბურთალოს ქუჩა, საბურთალოს რაიონი, თბილისი, 0150, საქართველო",success
tbc agmashenebeli 2,tbc agmashenebeli 2,ქ.თბილისი აღმაშენებლის გამზ 61,აღმაშენებლის გამზ 61,"აღმაშენებლის გამზ 61, Tbilisi, Georgia",Dropper,Tbilisi,,41.6934591,44.8014495,"თბილისი, საქართველო",city_only
Tbc marjanishvili,Tbc marjanishvili,ქ.თბილისი მარჯანიშვილის 16,მარჯანიშვილის 16,"მარჯანიშვილის 16, Tbilisi, Georgia",Dropper,Tbilisi,,41.7093693,44.7959468,"16, კოტე მარჯანიშვილის ქუჩა, პლეხანოვი, ქვედა ჩუღურეთი, ჩუღურეთის რაიონი, თბილისი, 0102, საქართველო",success
Unison,"Unison ""dispenser""",ქ.თბილისი გამრეკელის 19,გამრეკელის 19,"გამრეკელის 19, Tbilisi, Georgia",Dropper,Tbilisi,,41.725642,44.7684125,"19, დავით გამრეკელის ქუჩა, საბურთალო, ვეძისი, ყაზბეგი, გოთუა, საბურთალოს ქუჩა, საბურთალოს რაიონი, თბილისი, 0150, საქართველო",success
Tbc leasing (maserati),Tbc leasing (maserati),"ქ. თბილისი, დ. აღმაშენებელის ხეივანი 0131",დ. აღმაშენებელის ხეივანი 0131,"დ. აღმაშენებელის ხეივანი 0131, Tbilisi, Georgia",Dropper,Tbilisi,,41.6934591,44.8014495,"თბილისი, საქართველო",city_only
btu,btu,ჭავჭავაძის 82,ჭავჭავაძის 82,"ჭავჭავაძის 82, Tbilisi, Georgia",Dropper,Tbilisi,,41.7067316,44.7382045,"82, ილია ჭავჭავაძის გამზირი, ბაგები, ვაკე, ვაკის რაიონი, თბილისი, 1062, საქართველო",success
Aversi-Rational,"Aversi-Rational ""dispenser""",ქ.თბილისი ჭირნახულის ქუჩა 14,ჭირნახულის ქუჩა 14,"ჭირნახულის ქუჩა 14, Tbilisi, Georgia",Dropper,Tbilisi,,41.6934591,44.8014495,"თბილისი, საქართველო",city_only
United Global Technology,"United Global Technology ""dispenser""",ქ.თბილისი ჭავჭავაძის 17ა,ჭავჭავაძის 17ა,"ჭავჭავაძის 17ა, Tbilisi, Georgia",Dropper,Tbilisi,,41.709993,44.7711988,"17ა, ილია ჭავჭავაძის გამზირი, ვაკე, ვაკის რაიონი, თბილისი, 0179, საქართველო",success
MTA,MTA,ქ.თბილისი კოსტავას 70,კოსტავას 70,"კოსტავას 70, Tbilisi, Georgia",Dropper,Tbilisi,,41.7204329,44.777382,"სოლო, 70, კონსტანტინე გამსახურდიას გამზირი, საბურთალო, კოსტავა, ბახტრიონი, დოლიძე, ხილიანი, საბურთალოს რაიონი, თბილისი, 0171, საქართველო",success
York,York,ქ.თბილისი ალექსიძის 12,ალექსიძის 12,"ალექსიძის 12, Tbilisi, Georgia",Dropper,Tbilisi,,41.7171586,44.7853415,"META Business Hotel, 12, მერაბ ალექსიძის ქუჩა, საბურთალო, კოსტავა, ბახტრიონი, დოლიძე, ხილიანი, საბურთალოს რაიონი, თბილისი, 0171, საქართველო",success
Jerarsi Clinic,"Jerarsi Clinic""dispenser""",ქ.თბილისი მუხიანის 2ა,მუხიანის 2ა,"მუხიანის 2ა, Tbilisi, Georgia",Dropper,Tbilisi,,41.780495,44.8474726,"მუხიანის აგარაკები, მუხიანი, გლდანის რაიონი, თბილისი, საქართველო",success
jordanias klinika,jordanias klinika,ქ.თბილისი ერმილე ბედიას 33,ერმილე ბედიას 33,"ერმილე ბედიას 33, Tbilisi, Georgia",Dropper,Tbilisi,,41.7262752,44.7189019,"ერმილე ბედიას ქუჩა, ნუცუბიძის ფერდობი, ნუცუბიძის მიკრორაიონები, ვაკის რაიონი, თბილისი, 0168, საქართველო",success
Geo-Railway,"Geo-Railway ""dispenser""",ქ.თბილისი თამარ მეფის 15,თამარ მეფის 15,"თამარ მეფის 15, Tbilisi, Georgia",Dropper,Tbilisi,,41.719094,44.7942399,"15, თამარ მეფის გამზირი, დიდუბის რაიონი, დიდუბე, თბილისი, 0119, საქართველო",success
Imedi TV (Lubliana St),"Imedi TV (Lubliana St) ""dispenser""",ქ.თბილისი ლუბლიანას 5 (7 პავილიონი),ლუბლიანას 5 (7 პავილიონი),"ლუბლიანას 5 (7 პავილიონი), Tbilisi, Georgia",Dropper,Tbilisi,,41.6934591,44.8014495,"თბილისი, საქართველო",city_only
GD-M,"GD-M ""dispenser""",ქ.თბილისი მდივანის 3ა,მდივანის 3ა,"მდივანის 3ა, Tbilisi, Georgia",Dropper,Tbilisi,,41.7073777,45.0132536,"მერი მდივანის ქუჩა, წინუბანი, ლილო, სამგორის რაიონი, თბილისი, საქართველო",success
Georgian-Dutch Hospital,"Georgian-Dutch Hospital ""dispnser""",ქ.თბილისი გობრონიძის 27,გობრონიძის 27,"გობრონიძის 27, Tbilisi, Georgia",Dropper,Tbilisi,,41.7825644,44.8262392,"27, ალეკსი გობრონიძის ქუჩა, მუხიანი, გლდანის რაიონი, თბილისი, 0172, საქართველო",success
Terabank,"Terabank ""dispenser""","ქ.თბილისი, წამებულის 3",წამებულის 3,"წამებულის 3, Tbilisi, Georgia",Dropper,Tbilisi,,41.691485,44.815209,"3, წმინდა ქეთევან დედოფლის გამზირი, მეტეხი, ზემო ავლაბარი, მეტრომშენი, ისნის რაიონი, თბილისი, 0144, საქართველო",success
SAMSHENEBLO KOMPANIA-JEARSI,SAMSHENEBLO KOMPANIA-JEARSI,"ქ.თბილისი,ფეიქრების 14ბ",ფეიქრების 14ბ,"ფეიქრების 14ბ, Tbilisi, Georgia",Dropper,Tbilisi,,41.7770501,44.7910578,"ფეიქრების დასახლება, ნაძალადევის რაიონი, თბილისი, საქართველო",success
New Vision University Hospital,"New Vision University Hospital ""dispenser""",ქ.თბილისი ბოხუას 9,ბოხუას 9,"ბოხუას 9, Tbilisi, Georgia",Dropper,Tbilisi,,41.7803214,44.7695008,"ნოდარ ბოხუას ქუჩა, დიდუბის რაიონი, დიღმის მასივი, თბილისი, 0159, საქართველო",success
Meama East Point,Meama East Point,ქ.თბილისი ისთ ფოინთის სივრცე,ისთ ფოინთის სივრცე,"ისთ ფოინთის სივრცე, Tbilisi, Georgia",Dropper,Tbilisi,,41.6934591,44.8014495,"თბილისი, საქართველო",city_only
Georgian National Bank,"Georgian National Bank ""dispenser""",ქ.თბილისი გივი ამილახვრის 2,გივი ამილახვრის 2,"გივი ამილახვრის 2, Tbilisi, Georgia",Dropper,Tbilisi,,41.6934591,44.8014495,"თბილისი, საქართველო",city_only
National Bank of Georgia (gulua),"National Bank of Georgia (gulua) ""dispenser""","ქ.თბილისი, ვაზიანი",ვაზიანი,"ვაზიანი, Tbilisi, Georgia",Dropper,Tbilisi,,41.7566737,44.7862642,"ვაზიანის ქუჩა, ღრმაღელე, სანზონა, ნაძალადევის რაიონი, თბილისი, 0141, საქართველო",success
TBC-Railway station,TBC-Railway station,ქ.თბილისი ცენტრალური რკინიგზის სადგური,ცენტრალური რკინიგზის სადგური,"ცენტრალური რკინიგზის სადგური, Tbilisi, Georgia",Dropper,Tbilisi,,41.6934591,44.8014495,"თბილისი, საქართველო",city_only
TBC mini gldani,TBC mini gldani,ქ.თბილისი ალექსანდრე გობრონიძის 1/6,ალექსანდრე გობრონიძის 1/6,"ალექსანდრე გობრონიძის 1/6, Tbilisi, Georgia",Dropper,Tbilisi,,41.6934591,44.8014495,"თბილისი, საქართველო",city_only
Basisbank,"Basisbank ""dispenser""",ქ.თბილისი ქეთევან დედოფლის 1,ქეთევან დედოფლის 1,"ქეთევან დედოფლის 1, Tbilisi, Georgia",Dropper,Tbilisi,,41.691655,44.8147772,"1, წმინდა ქეთევან დედოფლის გამზირი, მეტეხი, ზემო ავლაბარი, მეტრომშენი, ისნის რაიონი, თბილისი, 0144, საქართველო",success
Prosecutor General ( 1 sartuli),"Prosecutor General ( 1 sartuli) ""dispenser""",ქ.თბილისი გორგასლის 24,გორგასლის 24,"გორგასლის 24, Tbilisi, Georgia",Dropper,Tbilisi,,41.6767296,44.8273894,"საქართველოს მთავარი პროკურატურა, 24, ვახტანგ გორგასლის ქუჩა, კრწანისი, კალა, ორთაჭალა, კრწანისის რაიონი, თბილისი, 0114, საქართველო",success
Imedi TV 2,Imedi TV 2,ქ.თბილისი ლიბლიანის 2 (4 პავილიონი),ლიბლიანის 2 (4 პავილიონი),"ლიბლიანის 2 (4 პავილიონი), Tbilisi, Georgia",Dropper,Tbilisi,,41.6934591,44.8014495,"თბილისი, საქართველო",city_only
Vake Plaza,"Vake Plaza ""dispenser""",ქ.თბილისი ილია ჭავჭავაძის 72ა,ილია ჭავჭავაძის 72ა,"ილია ჭავჭავაძის 72ა, Tbilisi, Georgia",Dropper,Tbilisi,,41.7110926,44.7550613,"72ა, ილია ჭავჭავაძის გამზირი, ვაკე, ვაკის რაიონი, თბილისი, 0162, საქართველო",success
my.gov.ge,"my.gov.ge ""dispenser""",ქ.თბილისი გორგასლის 22,გორგასლის 22,"გორგასლის 22, Tbilisi, Georgia",Dropper,Tbilisi,,41.6778639,44.8265845,"საჯარო რეესტრის ეროვნული სააგენტო, 22, ვახტანგ გორგასლის ქუჩა, კრწანისი, კალა, ორთაჭალა, კრწანისის რაიონი, თბილისი, 0114, საქართველო",success
Brand Shop Tbilisi Mall,Brand Shop Tbilisi Mall,ქ.თბილისი აღმაშენებლის ხეივანი მე-16 კმ.,აღმაშენებლის ხეივანი მე-16 კმ.,"აღმაშენებლის ხეივანი მე-16 კმ., Tbilisi, Georgia",Dropper,Tbilisi,,41.6934591,44.8014495,"თბილისი, საქართველო",city_only
Agricultural University of Georgia,"Agricultural University of Georgia ""dispenser""",ქ.თბილისი აღმაშენებლის ხეივანი 240,აღმაშენებლის ხეივანი 240,"აღმაშენებლის ხეივანი 240, Tbilisi, Georgia",Dropper,Tbilisi,,41.7836546,44.7689875,"დავით აღმაშენებლის ხეივანი, დიღომი, ვაშლიჯვარი, საბურთალოს რაიონი, თბილისი, 0159, საქართველო",success
lokomotivi ragby,lokomotivi ragby,ბელიაშვილის პირველი ჩიხი ბაბილოს გვერდით,ბელიაშვილის პირველი ჩიხი ბაბილოს გვერდით,"ბელიაშვილის პირველი ჩიხი ბაბილოს გვერდით, Tbilisi, Georgia",Dropper,Tbilisi,,41.6934591,44.8014495,"თბილისი, საქართველო",city_only
BOG 1 (I. Gagarini Str.),BOG 1 (I. Gagarini Str.),ქ.თბილისი გაგარინის 29ა,გაგარინის 29ა,"გაგარინის 29ა, Tbilisi, Georgia",Dropper,Tbilisi,,41.7357541,44.7703922,"საქართველოს ბანკის სათავო ოფისი, 29ა, იური გაგარინის ქუჩა, საბურთალო, ვეძისი, ყაზბეგი, გოთუა, საბურთალოს ქუჩა, საბურთალოს რაიონი, თბილისი, 0160, საქართველო",success
TBC-Gamrekeli,TBC-Gamrekeli,ქ.თბილისი გამრეკელის 2,გამრეკელის 2,"გამრეკელის 2, Tbilisi, Georgia",Dropper,Tbilisi,,41.7213444,44.7700588,"2, დავით გამრეკელის ქუჩა, საბურთალო, კოსტავა, ბახტრიონი, დოლიძე, ხილიანი, საბურთალოს რაიონი, თბილისი, 0150, საქართველო",success
MINISTRY OF JUSTICE,"MINISTRY OF JUSTICE ""dispenser""",ქ.თბილისი გორგასლის 24ა,გორგასლის 24ა,"გორგასლის 24ა, Tbilisi, Georgia",Dropper,Tbilisi,,41.67727,44.8267922,"საქართველოს იუსტიციის სამინისტრო, 24ა, ვახტანგ გორგასლის ქუჩა, კრწანისი, კალა, ორთაჭალა, კრწანისის რაიონი, თბილისი, 0114, საქართველო",success
Betlive wereteli,Betlive wereteli,ქ.თბილისი წერეთლის 141ა,წერეთლის 141ა,"წერეთლის 141ა, Tbilisi, Georgia",Dropper,Tbilisi,,41.7473725,44.7780768,"ევექსი პოლიკლინიკა, 141a, აკაკი წერეთლის გამზირი, დიდუბის რაიონი, დიდუბე, თბილისი, 0119, საქართველო",success
TBC-Wereteli,TBC-Wereteli,ქ.თბილისი წერეთლის 73ა,წერეთლის 73ა,"წერეთლის 73ა, Tbilisi, Georgia",Dropper,Tbilisi,,41.7360863,44.782848,"73ა, აკაკი წერეთლის გამზირი, დიდუბის რაიონი, დიდუბე, თბილისი, 0119, საქართველო",success
tbc leasing 3,tbc leasing 3,ქ.თბილისი ჭავჭავაძის 76,ჭავჭავაძის 76,"ჭავჭავაძის 76, Tbilisi, Georgia",Dropper,Tbilisi,,41.7112119,44.7525907,"76, ილია ჭავჭავაძის გამზირი, ვაკე, ვაკის რაიონი, თბილისი, 0162, საქართველო",success
epizodi mini,epizodi mini,ქ.თბილისი პეკინის 41,პეკინის 41,"პეკინის 41, Tbilisi, Georgia",Dropper,Tbilisi,,41.730688,44.7679481,"41, პეკინის გამზირი, საბურთალო, კოსტავა, ბახტრიონი, დოლიძე, ხილიანი, საბურთალოს რაიონი, თბილისი, 0150, საქართველო",success
betlive mini 1,betlive mini 1,ქ.თბილისი წერეთლის ქუჩა 123,წერეთლის ქუჩა 123,"წერეთლის ქუჩა 123, Tbilisi, Georgia",Dropper,Tbilisi,,41.7331425,44.9629496,"აკაკი წერეთლის ქუჩა, დიდი ლილო, ლილო, სამგორის რაიონი, თბილისი, 0151, საქართველო",success
samto kimia,samto kimia,წერეთლის გამზირი 142,წერეთლის გამზირი 142,"წერეთლის გამზირი 142, Tbilisi, Georgia",Dropper,Tbilisi,,41.7504527,44.7763387,"142, აკაკი წერეთლის გამზირი, დიდუბის რაიონი, დიდუბე, თბილისი, 0119, საქართველო",success
Tbilisi Green School,"Tbilisi Green School ""dispenser""",ქ.თბილისი ხუდადოვის 1,ხუდადოვის 1,"ხუდადოვის 1, Tbilisi, Georgia",Dropper,Tbilisi,,41.72431,44.802781,"1, ნიკოლოზ ხუდადოვის ქუჩა, ზემო ჩუღურეთი, ჩუღურეთის რაიონი, თბილისი, 0102, საქართველო",success
BOG 3 (I. Gagarini Str.),BOG 3 (I. Gagarini Str.),ქ.თბილისი გაგარინის 29ა,გაგარინის 29ა,"გაგარინის 29ა, Tbilisi, Georgia",Dropper,Tbilisi,,41.7357541,44.7703922,"საქართველოს ბანკის სათავო ოფისი, 29ა, იური გაგარინის ქუჩა, საბურთალო, ვეძისი, ყაზბეგი, გოთუა, საბურთალოს ქუჩა, საბურთალოს რაიონი, თბილისი, 0160, საქართველო",success
TBC dadiani,TBC dadiani,ცოტნე დადიანის ქუჩა 103-109,ცოტნე დადიანის ქუჩა 103-109,"ცოტნე დადიანის ქუჩა 103-109, Tbilisi, Georgia",Dropper,Tbilisi,,41.7292194,44.7984515,"ცოტნე დადიანის ქუჩა, ძველი ნაძალადევი, ნაძალადევის რაიონი, თბილისი, 0101, საქართველო",success
Prosecutor,"Prosecutor ""dispenser""",ქ.თბილისი აღმაშენებლის ხეივანი მე-12 კმ.,აღმაშენებლის ხეივანი მე-12 კმ.,"აღმაშენებლის ხეივანი მე-12 კმ., Tbilisi, Georgia",Dropper,Tbilisi,,41.6934591,44.8014495,"თბილისი, საქართველო",city_only
advokatta asociacia,advokatta asociacia,თინათინ ვირსალაძის პირველი ჩიხი #1,თინათინ ვირსალაძის პირველი ჩიხი #1,"თინათინ ვირსალაძის პირველი ჩიხი #1, Tbilisi, Georgia",Dropper,Tbilisi,,41.6934591,44.8014495,"თბილისი, საქართველო",city_only
PayBox,PayBox,ქ.თბილისი ქსნის ქუჩა 36,ქსნის ქუჩა 36,"ქსნის ქუჩა 36, Tbilisi, Georgia",Dropper,Tbilisi,,41.6934591,44.8014495,"თბილისი, საქართველო",city_only
Terabank 2,"Terabank 2 ""dispenser""",ქ.თბილისი ვირსალაძის 5,ვირსალაძის 5,"ვირსალაძის 5, Tbilisi, Georgia",Dropper,Tbilisi,,41.6426785,44.8942282,"სპირიდონ ვირსალაძის I შესახვევი, ზემო ფონიჭალა, ფონიჭალა, კრწანისის რაიონი, თბილისი, 0114, საქართველო",success
Caucasus Medical Centre,"Caucasus Medical Centre ""dispenser""",ქ.თბილისი ქავთარაძის 23,ქავთარაძის 23,"ქავთარაძის 23, Tbilisi, Georgia",Dropper,Tbilisi,,41.7219636,44.7314567,"კავკასიის მედიცინის ცენტრი, 23, პეტრე ქავთარაძის ქუჩა, საბურთალო, ვაჟა-ფშაველას კვარტლები, ვაკის რაიონი, თბილისი, 0186, საქართველო",success
Tbilisi Botanical Garden,Tbilisi Botanical Garden,ქ.თბილისი ბოტანიკურის 1,ბოტანიკურის 1,"ბოტანიკურის 1, Tbilisi, Georgia",Dropper,Tbilisi,,41.6857658,44.8093155,"ილიას სახელმწიფო უნივერსიტეტის ბოტანიკის ინსტიტუტი, 1, ბოტანიკურის ქუჩა, აბანოთუბანი, კალა, ორთაჭალა, კრწანისის რაიონი, თბილისი, 0114, საქართველო",success
Millennium School,"Millennium School ""dispenser""",ქ.თბილისი ფერმწერთა 109,ფერმწერთა 109,"ფერმწერთა 109, Tbilisi, Georgia",Dropper,Tbilisi,,41.7414498,44.7223259,"Millennium School, 109, ფერმწერთა ქუჩა, ნუცუბიძის ფერდობი, ნუცუბიძის მიკრორაიონები, ვაკის რაიონი, თბილისი, 0017, საქართველო",success
IT Academy Step,"IT Academy Step ""dispenser""",ქ.თბილისი ყაზბეგის 34/34ბ,ყაზბეგის 34/34ბ,"ყაზბეგის 34/34ბ, Tbilisi, Georgia",Dropper,Tbilisi,,41.7229733,44.7401342,"34-34ბ, ალექსანდრე ყაზბეგის გამზირი, საბურთალო, ვაჟა-ფშაველას კვარტლები, ვაკის რაიონი, თბილისი, 0177, საქართველო",success
BOG 5 (Zhiuli Shartava St),BOG 5 (Zhiuli Shartava St),ქ.თბილისი ვირსალაძის 5,ვირსალაძის 5,"ვირსალაძის 5, Tbilisi, Georgia",Dropper,Tbilisi,,41.6426785,44.8942282,"სპირიდონ ვირსალაძის I შესახვევი, ზემო ფონიჭალა, ფონიჭალა, კრწანისის რაიონი, თბილისი, 0114, საქართველო",success
ENERGO PRO GEORGIA,ENERGO PRO GEORGIA,ქ.თბილისი ზ.ანჯაფარიძის 19,ზ.ანჯაფარიძის 19,"ზ.ანჯაფარიძის 19, Tbilisi, Georgia",Dropper,Tbilisi,,41.6934591,44.8014495,"თბილისი, საქართველო",city_only
Khmaladze Architects (Sandro Euli Str),Khmaladze Architects (Sandro Euli Str),ქ.თბილისი სანდრო ეულის 7,სანდრო ეულის 7,"სანდრო ეულის 7, Tbilisi, Georgia",Dropper,Tbilisi,,41.7236913,44.7173223,"ზურაბ ანჯაფარიძის ქუჩა, საბურთალო, ვაჟა-ფშაველას კვარტლები, ვაკის რაიონი, თბილისი, 0168, საქართველო",success
Dento club,Dento club,ქ.თბილისი ყაზბეგის 14ა,ყაზბეგის 14ა,"ყაზბეგის 14ა, Tbilisi, Georgia",Dropper,Tbilisi,,41.7254036,44.7617318,"14ა, ალექსანდრე ყაზბეგის გამზირი, საბურთალო, ვეძისი, ყაზბეგი, გოთუა, საბურთალოს ქუჩა, საბურთალოს რაიონი, თბილისი, 0194, საქართველო",success
Bank Of Georgia - Lisi,"Bank Of Georgia - Lisi ""dispenser""",ქ.თბილისი ლისის ტბის მ/ტ.(წრიულთნ),ლისის ტბის მ/ტ.(წრიულთნ),"ლისის ტბის მ/ტ.(წრიულთნ), Tbilisi, Georgia",Dropper,Tbilisi,,41.6934591,44.8014495,"თბილისი, საქართველო",city_only
Lomisi,"Lomisi ""dispenser""",ქ.თბილისი ბიძინა კვერნაძის 10,ბიძინა კვერნაძის 10,"ბიძინა კვერნაძის 10, Tbilisi, Georgia",Dropper,Tbilisi,,41.720355,44.7820922,"10, ბიძინა კვერნაძის II შესახვევი, საბურთალო, კოსტავა, ბახტრიონი, დოლიძე, ხილიანი, საბურთალოს რაიონი, თბილისი, 0193, საქართველო",success
Tbilisi Green School Saburtalo,"Tbilisi Green School Saburtalo ""dispenser""",ქ.თბილისი ბესარიონ ჟღენტის 37,ბესარიონ ჟღენტის 37,"ბესარიონ ჟღენტის 37, Tbilisi, Georgia",Dropper,Tbilisi,,41.7297387,44.7272712,"37, ბესარიონ ჟღენტის ქუჩა, ნუცუბიძის ფერდობი, ნუცუბიძის მიკრორაიონები, ვაკის რაიონი, თბილისი, 0186, საქართველო",success
operation technical department of mia,operation technical department of mia,ქ.თბილისი ქავთარაძის 5ა,ქავთარაძის 5ა,"ქავთარაძის 5ა, Tbilisi, Georgia",Dropper,Tbilisi,,41.7213553,44.7305469,"პეტრე ქავთარაძის ქუჩა, საბურთალო, ვაჟა-ფშაველას კვარტლები, ვაკის რაიონი, თბილისი, 0186, საქართველო",success
National Probation Agency,"National Probation Agency ""dispenser""",ქ.თბილისი ყაზბეგის 42/42ა,ყაზბეგის 42/42ა,"ყაზბეგის 42/42ა, Tbilisi, Georgia",Dropper,Tbilisi,,41.8253373,44.7528358,"ალექსანდრე ყაზბეგის ქუჩა, ზაჰესი, ავჭალა, გლდანის ხევი, გლდანის რაიონი, თბილისი, 0153, საქართველო",success
TBC-Kazbegi,TBC-Kazbegi,ქ.თბილისი ყაზბეგის 12,ყაზბეგის 12,"ყაზბეგის 12, Tbilisi, Georgia",Dropper,Tbilisi,,41.7255708,44.7637247,"საქარტვლოს რეგიონული განვითარებისა და ინფრასტრუკტურის სამინისტრო, 12, ალექსანდრე ყაზბეგის გამზირი, საბურთალო, ვეძისი, ყაზბეგი, გოთუა, საბურთალოს ქუჩა, საბურთალოს რაიონი, თბილისი, 0194, საქართველო",success
BOG 7(Gagarini 29),BOG 7(Gagarini 29),"ქ.თბილისი, გაგარინის 29",გაგარინის 29,"გაგარინის 29, Tbilisi, Georgia",Dropper,Tbilisi,,41.7351516,44.7701096,"29, იური გაგარინის ქუჩა, ვეძისი, ვეძისი, ყაზბეგი, გოთუა, საბურთალოს ქუჩა, საბურთალოს რაიონი, თბილისი, 0160, საქართველო",success
TBC-Vaja-fshavela,TBC-Vaja-fshavela,ქ.თბილისი ვაჟა-ფშაველას 49,ვაჟა-ფშაველას 49,"ვაჟა-ფშაველას 49, Tbilisi, Georgia",Dropper,Tbilisi,,41.7266071,44.7384284,"ვლადიმირ კომაროვის თბილისის ფიზიკა-მათემატიკის № 199 საჯარო სკოლა, 49, ვაჟა-ფშაველას გამზირი, საბურთალო, ვაჟა-ფშაველას კვარტლები, ვაკის რაიონი, თბილისი, 0186, საქართველო",success
BOG 8,BOG 8,ქ.თბილისი ვაჟა ფშაველას 76,ვაჟა ფშაველას 76,"ვაჟა ფშაველას 76, Tbilisi, Georgia",Dropper,Tbilisi,,41.7234783,44.731682,"ახალგაზრდობის სააგენტო, 76, ვაჟა-ფშაველას გამზირი, საბურთალო, ვაჟა-ფშაველას კვარტლები, ვაკის რაიონი, თბილისი, 0186, საქართველო",success
Reiman-2,"Reiman-2 ""dispenser""",ქ.თბილისი სანდრო ეულის 7,სანდრო ეულის 7,"სანდრო ეულის 7, Tbilisi, Georgia",Dropper,Tbilisi,,41.7236913,44.7173223,"ზურაბ ანჯაფარიძის ქუჩა, საბურთალო, ვაჟა-ფშაველას კვარტლები, ვაკის რაიონი, თბილისი, 0168, საქართველო",success
Alte University,"Alte University ""dispenser""",ქ.თბილისი უნივერსიტეტის 2,უნივერსიტეტის 2,"უნივერსიტეტის 2, Tbilisi, Georgia",Dropper,Tbilisi,,41.7180343,44.721944,"თბილისის ივანე ჯავახიშვილის სახელობის სახელმწიფო უნივერსიტეტი, კორპუსი X / მაღლივი, 2, უნივერსიტეტის ქუჩა, საბურთალო, ვაჟა-ფშაველას კვარტლები, ვაკის რაიონი, თბილისი, 1086, საქართველო",success
co-working radius,co-working radius,თბილისი დიდუბე პლაზა წერეთელი,დიდუბე პლაზა წერეთელი,"დიდუბე პლაზა წერეთელი, Tbilisi, Georgia",Dropper,Tbilisi,,41.738473,44.7804596,"დიდუბე პლაზა, 116, აკაკი წერეთლის გამზირი, დიდუბის რაიონი, დიდუბე, თბილისი, 0119, საქართველო",success
Sulxan saba,Sulxan saba,კ.ქუთათელაძის 3,კ.ქუთათელაძის 3,"კ.ქუთათელაძის 3, Tbilisi, Georgia",Dropper,Tbilisi,,41.6934591,44.8014495,"თბილისი, საქართველო",city_only
wkalburtis akademia,wkalburtis akademia,"თბილისი, პოლიტკოვსკაიას ქუჩა 30",პოლიტკოვსკაიას ქუჩა 30,"პოლიტკოვსკაიას ქუჩა 30, Tbilisi, Georgia",Dropper,Tbilisi,,41.7200665,44.7080382,"ნიუტონის თავისუფალი სკოლა, 30, ანა პოლიტკოვსკაიას ქუჩა, საბურთალო, ვაჟა-ფშაველას კვარტლები, ვაკის რაიონი, თბილისი, 0168, საქართველო",success
Bravo Records,"Bravo Records ""dispenser""",ქ.თბილისი კოსტავას 68/2,კოსტავას 68/2,"კოსტავას 68/2, Tbilisi, Georgia",Dropper,Tbilisi,,41.7109541,44.783958,"მერაბ კოსტავას ქუჩა, ფიქრის გორა, ვერა, მთაწმინდის რაიონი, თბილისი, 1079, საქართველო",success
BOG Bakhtrioni,"BOG Bakhtrioni ""dispenser""",ქ.თბილისი ბახტრიონის 22,ბახტრიონის 22,"ბახტრიონის 22, Tbilisi, Georgia",Dropper,Tbilisi,,41.7200934,44.7657356,"22, ბახტრიონის ქუჩა, საბურთალო, კოსტავა, ბახტრიონი, დოლიძე, ხილიანი, საბურთალოს რაიონი, თბილისი, 0150, საქართველო",success
Bank of Georgia iTower,Bank of Georgia iTower,ქ.თბილისი გაგარინის 29,გაგარინის 29,"გაგარინის 29, Tbilisi, Georgia",Dropper,Tbilisi,,41.7351516,44.7701096,"29, იური გაგარინის ქუჩა, ვეძისი, ვეძისი, ყაზბეგი, გოთუა, საბურთალოს ქუჩა, საბურთალოს რაიონი, თბილისი, 0160, საქართველო",success
TBILISI-ENERGY 1,"TBILISI-ENERGY 1 ""dispenser""",ქ.თბილისი მიცკევიჩის 18ა,მიცკევიჩის 18ა,"მიცკევიჩის 18ა, Tbilisi, Georgia",Dropper,Tbilisi,,41.7242165,44.7670644,"Badagi, 18ა, ადამ მიცკევიჩის ქუჩა, საბურთალო, ვეძისი, ყაზბეგი, გოთუა, საბურთალოს ქუჩა, საბურთალოს რაიონი, თბილისი, 0150, საქართველო",success
BOG_9,BOG_9,"ქ.თბილისი,მიხეილ ბურძგლა 56",მიხეილ ბურძგლა 56,"მიხეილ ბურძგლა 56, Tbilisi, Georgia",Dropper,Tbilisi,,41.7231348,44.7612676,"56, მიხეილ ბურძგლას ქუჩა, საირმის გორა, ვეძისი, ყაზბეგი, გოთუა, საბურთალოს ქუჩა, საბურთალოს რაიონი, თბილისი, 0194, საქართველო",success
Rev-Administration,"Rev-Administration ""dispenser""",ქ.თბილისი ალექსიძის 1,ალექსიძის 1,"ალექსიძის 1, Tbilisi, Georgia",Dropper,Tbilisi,,41.7172225,44.7814241,"1, მერაბ ალექსიძის ქუჩა, საბურთალო, კოსტავა, ბახტრიონი, დოლიძე, ხილიანი, საბურთალოს რაიონი, თბილისი, 0193, საქართველო",success
Episode Tbilisi,"Episode Tbilisi ""dispenser""","123 Main St, City, Country 5","123 Main St, City, Country 5","123 Main St, City, Country 5, Tbilisi, Georgia",Dropper,Tbilisi,,,,,skipped
tbc chavchavadze,tbc chavchavadze,ჭავჭავაძის 2,ჭავჭავაძის 2,"ჭავჭავაძის 2, Tbilisi, Georgia",Dropper,Tbilisi,,41.6871065,44.7754164,"2, ილია ჭავჭავაძის ქუჩა, ოქროყანა, მთაწმინდა, სოლოლაკი, მთაწმინდის რაიონი, თბილისი, 0179, საქართველო",success
bog-10,bog-10,"ქ. თბილისი, ბიძინა კვერნაძე",ბიძინა კვერნაძე,"ბიძინა კვერნაძე, Tbilisi, Georgia",Dropper,Tbilisi,,41.6881245,44.8106036,"ბიძინა კვერნაძე, აბანოს ქუჩა, აბანოთუბანი, კალა, ორთაჭალა, კრწანისის რაიონი, თბილისი, 0114, საქართველო",success
palitra media 2,palitra media 2,"თბილისი, იოსებიძის 49",იოსებიძის 49,"იოსებიძის 49, Tbilisi, Georgia",Dropper,Tbilisi,,41.7253135,44.7732015,"49, თინა იოსებიძის ქუჩა, საბურთალო, კოსტავა, ბახტრიონი, დოლიძე, ხილიანი, საბურთალოს რაიონი, თბილისი, 0150, საქართველო",success
Revenue-Service-Airport,"Revenue-Service-Airport ""dispenser""",ქ.თბილისი აეროპორტთან (ლასარე),აეროპორტთან (ლასარე),"აეროპორტთან (ლასარე), Tbilisi, Georgia",Dropper,Tbilisi,,41.6934591,44.8014495,"თბილისი, საქართველო",city_only
TBC-Isani,TBC-Isani,ქ.თბილისი ქ.წამებულის 67,ქ.წამებულის 67,"ქ.წამებულის 67, Tbilisi, Georgia",Dropper,Tbilisi,,41.6934591,44.8014495,"თბილისი, საქართველო",city_only
tbc chavchavadze,tbc chavchavadze,ჭავჭავაძის 29,ჭავჭავაძის 29,"ჭავჭავაძის 29, Tbilisi, Georgia",Dropper,Tbilisi,,41.6424924,44.9184067,"29, ილია ჭავჭავაძის ქუჩა, ფონიჭალა, კრწანისის რაიონი, თბილისი, 0114, საქართველო",success
Prosecutor General ( 4 sartuli),"Prosecutor General ( 4 sartuli) ""dispenser""",ქ.თბილისი გორგასლის 24,გორგასლის 24,"გორგასლის 24, Tbilisi, Georgia",Dropper,Tbilisi,,41.6767296,44.8273894,"საქართველოს მთავარი პროკურატურა, 24, ვახტანგ გორგასლის ქუჩა, კრწანისი, კალა, ორთაჭალა, კრწანისის რაიონი, თბილისი, 0114, საქართველო",success
TBC-Rustavi,TBC-Rustavi,ქ.რუსთავი მეგობრობის 14,ქ.რუსთავი მეგობრობის 14,"ქ.რუსთავი მეგობრობის 14, Rustavi, Georgia",Dropper,Rustavi,,41.5466778,45.014959,"რუსთავი, ქვემო ქართლი, 3700, საქართველო",city_only
TBC-Ortachala,TBC-Ortachala,ქ.თბილისი გორგასლის 41,გორგასლის 41,"გორგასლის 41, Tbilisi, Georgia",Dropper,Tbilisi,,41.6811177,44.823741,"41, ვახტანგ გორგასლის ქუჩა, ორთაჭალა, კალა, ორთაჭალა, კრწანისის რაიონი, თბილისი, 0114, საქართველო",success
NAPR HQ1 (Gorgasali Str),"NAPR HQ1 (Gorgasali Str) ""dispenser""",ქ.თბილისი გორგასლის 22,გორგასლის 22,"გორგასლის 22, Tbilisi, Georgia",Dropper,Tbilisi,,41.6778639,44.8265845,"საჯარო რეესტრის ეროვნული სააგენტო, 22, ვახტანგ გორგასლის ქუჩა, კრწანისი, კალა, ორთაჭალა, კრწანისის რაიონი, თბილისი, 0114, საქართველო",success
Bokhua,"Bokhua ""dispenser""",ქ.თბილისი ჩაჩავას 1,ჩაჩავას 1,"ჩაჩავას 1, Tbilisi, Georgia",Dropper,Tbilisi,,41.7752799,44.7763794,"თბილისის ცენტრალური საავადმყოფო, 1, კონსტანტინე ჩაჩავას ქუჩა, დიდუბის რაიონი, დიღმის მასივი, თბილისი, 0159, საქართველო",success
NAPR HQ2 (Gorgasali Str),"NAPR HQ2 (Gorgasali Str)""dispenser""",ქ.თბილისი გორგასლის 22,გორგასლის 22,"გორგასლის 22, Tbilisi, Georgia",Dropper,Tbilisi,,41.6778639,44.8265845,"საჯარო რეესტრის ეროვნული სააგენტო, 22, ვახტანგ გორგასლის ქუჩა, კრწანისი, კალა, ორთაჭალა, კრწანისის რაიონი, თბილისი, 0114, საქართველო",success
Pineo,"Pineo ""dispenser""",ქ.თბილისი გორგასლის 93,გორგასლის 93,"გორგასლის 93, Tbilisi, Georgia",Dropper,Tbilisi,,41.6720667,44.8339618,"93, ვახტანგ გორგასლის ქუჩა, ორთაჭალა, კალა, ორთაჭალა, კრწანისის რაიონი, თბილისი, 0114, საქართველო",success
TBC-Leonidze,TBC-Leonidze,ქ.თბილისი ლეონიძის 2,ლეონიძის 2,"ლეონიძის 2, Tbilisi, Georgia",Dropper,Tbilisi,,41.6927828,44.8009077,"2, გიორგი ლეონიძის ქუჩა, მთაწმინდა, სოლოლაკი, მთაწმინდის რაიონი, თბილისი, 0105, საქართველო",success
TBC-Mtawminda,TBC-Mtawminda,ქ.თბილისი თვისუფლების მოედანი (გუდიაშვილის 7),თვისუფლების მოედანი (გუდიაშვილის 7),"თვისუფლების მოედანი (გუდიაშვილის 7), Tbilisi, Georgia",Dropper,Tbilisi,,41.6934591,44.8014495,"თბილისი, საქართველო",city_only
SkyTel,"SkyTel ""dispenser""",ქ.თბილისი გურამიშვილის 23ა,გურამიშვილის 23ა,"გურამიშვილის 23ა, Tbilisi, Georgia",Dropper,Tbilisi,,41.7657787,44.7911865,"23ა, დავით გურამიშვილის გამზირი, ღრმაღელე, სანზონა, ნაძალადევის რაიონი, თბილისი, 0141, საქართველო",success
National Bank of Georgia,"National Bank of Georgia ""dispenser""",ქ.თბილისი სანაპიროს 2,სანაპიროს 2,"სანაპიროს 2, Tbilisi, Georgia",Dropper,Tbilisi,,41.6976527,44.8063195,"2/а, სანაპიროს ქუჩა, მთაწმინდა, სოლოლაკი, მთაწმინდის რაიონი, თბილისი, 0105, საქართველო",success
Ministry of Economy and Sustainable Development,Ministry of Economy and Sustainable Development,ქ.თბილისი სანაპიროს 2,სანაპიროს 2,"სანაპიროს 2, Tbilisi, Georgia",Dropper,Tbilisi,,41.6976527,44.8063195,"2/а, სანაპიროს ქუჩა, მთაწმინდა, სოლოლაკი, მთაწმინდის რაიონი, თბილისი, 0105, საქართველო",success
Dental mitskhevichi/ HBI-Dentinmplant,Dental mitskhevichi/ HBI-Dentinmplant,ქ.თბილისი ადამ მიცკევიჩის 20,ადამ მიცკევიჩის 20,"ადამ მიცკევიჩის 20, Tbilisi, Georgia",Dropper,Tbilisi,,41.7241629,44.7650317,"20, ადამ მიცკევიჩის ქუჩა, საბურთალო, ვეძისი, ყაზბეგი, გოთუა, საბურთალოს ქუჩა, საბურთალოს რაიონი, თბილისი, 0150, საქართველო",success
Palitra Media (T. Iosebidze Str.),Palitra Media (T. Iosebidze Str.) dispenser,ქ.თბილისი იოსებიძის 49,იოსებიძის 49,"იოსებიძის 49, Tbilisi, Georgia",Dropper,Tbilisi,,41.7253135,44.7732015,"49, თინა იოსებიძის ქუჩა, საბურთალო, კოსტავა, ბახტრიონი, დოლიძე, ხილიანი, საბურთალოს რაიონი, თბილისი, 0150, საქართველო",success
CHACHAVA CLINIC,"CHACHAVA CLINIC ""dispenser""",ქ.თბილისი კოსტავას 38,კოსტავას 38,"კოსტავას 38, Tbilisi, Georgia",Dropper,Tbilisi,,41.7081913,44.7850721,"ჩაჩავას კლინიკა, 38, მერაბ კოსტავას ქუჩა, ფიქრის გორა, ვერა, მთაწმინდის რაიონი, თბილისი, 1079, საქართველო",success
Silknet (gotua),Silknet (gotua),ქ.თბილისი ჰეიდარ ალიევის სანაპირო 7,ჰეიდარ ალიევის სანაპირო 7,"ჰეიდარ ალიევის სანაპირო 7, Tbilisi, Georgia",Dropper,Tbilisi,,41.7152967,44.7876912,"ჰეიდარ ალიევის სახელობის მარჯვენა სანაპირო, საბურთალო, ვერა, მთაწმინდის რაიონი, თბილისი, 0193, საქართველო",success
Betlive Varketili,Betlive Varketili,ქ.თბილისი ვარკეთილის მეტროსთან,ვარკეთილის მეტროსთან,"ვარკეთილის მეტროსთან, Tbilisi, Georgia",Dropper,Tbilisi,,41.6934591,44.8014495,"თბილისი, საქართველო",city_only
bog pushkini,bog pushkini,ქ.თბილისი ალექსანდრე პუშნიკის 3,ალექსანდრე პუშნიკის 3,"ალექსანდრე პუშნიკის 3, Tbilisi, Georgia",Dropper,Tbilisi,,41.6934591,44.8014495,"თბილისი, საქართველო",city_only
betlive gldani 3,betlive gldani 3,ქ.თბილისი ომარ ხიზანიშვილის 13,ომარ ხიზანიშვილის 13,"ომარ ხიზანიშვილის 13, Tbilisi, Georgia",Dropper,Tbilisi,,41.8101599,44.843347,"ომარ ხიზანიშვილის ქუჩა, გლდანის კენტი მიკრორაიონები, გლდანის რაიონი, თბილისი, 0107, საქართველო",success
Pharagraph Bog Bank,Pharagraph Bog Bank,ქ.თბილისი თავისუფლების მოედანი 7,თავისუფლების მოედანი 7,"თავისუფლების მოედანი 7, Tbilisi, Georgia",Dropper,Tbilisi,,41.6938718,44.8013715,"თავისუფლების მოედანი, მთაწმინდა, სოლოლაკი, მთაწმინდის რაიონი, თბილისი, 0105, საქართველო",success
LTD MARADONA,LTD MARADONA,ქ.თბილისი კონსტიტუციის 4,კონსტიტუციის 4,"კონსტიტუციის 4, Tbilisi, Georgia",Dropper,Tbilisi,,41.6934591,44.8014495,"თბილისი, საქართველო",city_only
tegeta motorsi,tegeta motorsi,"თბილისი, ამერიკის საელჩოსთან",ამერიკის საელჩოსთან,"ამერიკის საელჩოსთან, Tbilisi, Georgia",Dropper,Tbilisi,,41.6934591,44.8014495,"თბილისი, საქართველო",city_only
New-Capital Georgian Dream,"New-Capital Georgian Dream ""dispenser",ქ.თბილისი გორგასლის 20,გორგასლის 20,"გორგასლის 20, Tbilisi, Georgia",Dropper,Tbilisi,,41.6774928,44.8258976,"ვახტანგ გორგასლის ქუჩა, კრწანისი, კალა, ორთაჭალა, კრწანისის რაიონი, თბილისი, 0114, საქართველო",success
Liberty Bank HQ (Chavchavadze Ave),Liberty Bank HQ (Chavchavadze Ave),ქ.თბილისი ჭავჭავაძის 74,ჭავჭავაძის 74,"ჭავჭავაძის 74, Tbilisi, Georgia",Dropper,Tbilisi,,41.7113011,44.7545278,"Liberty Tower, 74, ილია ჭავჭავაძის გამზირი, ვაკე, ვაკის რაიონი, თბილისი, 0162, საქართველო",success
tbc,tbc,ქ.თბილისი აღმაშენებლის გამზირი 138ა,აღმაშენებლის გამზირი 138ა,"აღმაშენებლის გამზირი 138ა, Tbilisi, Georgia",Dropper,Tbilisi,,41.7135301,44.7940966,"138ა, დავით აღმაშენებლის გამზირი, პლეხანოვი, ქვედა ჩუღურეთი, ჩუღურეთის რაიონი, თბილისი, 0102, საქართველო",success
Status,Status,ქ.თბილისი ლუბლიანას 13დ,ლუბლიანას 13დ,"ლუბლიანას 13დ, Tbilisi, Georgia",Dropper,Tbilisi,,41.7752973,44.774839,"ლუბლიანას ქუჩა, დიდუბის რაიონი, დიღმის მასივი, თბილისი, 0159, საქართველო",success
Artstudio Project,"Artstudio Project ""dispenser""",ქ.თბილისი საკანდელიძის 3,საკანდელიძის 3,"საკანდელიძის 3, Tbilisi, Georgia",Dropper,Tbilisi,,41.7107595,44.7263579,"3, ზურაბ საკანდელიძის ქუჩა, ბაგები, ვაკე, ვაკის რაიონი, თბილისი, 1086, საქართველო",success
Kcall,Kcall,ქ.თბილისი დიღმის მასივი 1 კვარტალი 1ა,დიღმის მასივი 1 კვარტალი 1ა,"დიღმის მასივი 1 კვარტალი 1ა, Tbilisi, Georgia",Dropper,Tbilisi,,41.6934591,44.8014495,"თბილისი, საქართველო",city_only
BasisBank (Amirejibi),"BasisBank (Amirejibi) ""dispenser""",ქ.თბილისი ამირეჯიბის 6,ამირეჯიბის 6,"ამირეჯიბის 6, Tbilisi, Georgia",Dropper,Tbilisi,,41.7137252,44.7696467,"ჭაბუა ამირეჯიბის გზატკეცილი, ვაკე, ვაკის რაიონი, თბილისი, 0179, საქართველო",success
